[
    {
      "id": "1",
      "name": "Middletons Bristol",
      "lat": "51.414225",
      "lng": "-2.609811",
      "category": "Store",
      "address": "65 Whitchurch Lane",
      "address2": "",
      "city": "Bristol",
      "state": "",
      "postal": "BS13 7TE",
      "phone": "0800 999 4812",
      "web": "\/pages\/showroom-bristol",
      "hours1": "Mon-Sat 9:00am-5:00pm",
      "hours2": "Sun 10:00am-4:00pm",
      "hours3": "",
      "featured": "",
      "features": "Scooter Test Track, Book a Bus",
      "date": "",
      "distance": 0
    },
    {
      "id": "2",
      "name": "Middletons Newport",
      "lat": "51.602195",
      "lng": "-3.006283",
      "category": "Store",
      "address": "219 Malpas Road",
      "address2": "",
      "city": "Newport",
      "state": "",
      "postal": "NP20 5PP",
      "phone": "0800 999 4812",
      "web": "\/pages\/showroom-newport",
      "niceURL": "Store Page",
      "hours1": "Mon-Sat 9:00am-5:00pm",
      "hours2": "Sun 10:00am-4:00pm",
      "hours3": "",
      "featured": "",
      "features": "Book a Bus",
      "date": "",
      "distance": 0
    },
    {
      "id": "3",
      "name": "Middletons Cardiff",
      "lat": "51.467104",
      "lng": "-3.191740",
      "category": "Store",
      "address": "216 Penarth Road",
      "address2": "",
      "city": "Cardiff",
      "state": "",
      "postal": "CF11 8NN",
      "phone": "0800 999 4812",
      "web": "\/pages\/showroom-cardiff",
      "hours1": "Mon-Sat 9:00am-5:00pm",
      "hours2": "Sun 10:00am-4:00pm",
      "hours3": "",
      "featured": "",
      "features": "Book a Bus",
      "date": "",
      "distance": 0
    },
    {
      "id": "4",
      "name": "Middletons Swansea",
      "lat": "51.635213",
      "lng": "-3.956739",
      "category": "Store",
      "address": "Carmarthen Road",
      "address2": "Cwmbwrla",
      "city": "Swansea",
      "state": "",
      "postal": "SA5 8LW",
      "phone": "0800 999 4812",
      "web": "\/pages\/showroom-swansea",
      "hours1": "Mon-Sat 9:00am-5:00pm",
      "hours2": "Sun 10:00am-4:00pm",
      "hours3": "",
      "featured": "",
      "features": "Book a Bus",
      "date": "",
      "distance": 0
    },
    {
      "id": "7",
      "name": "Middletons at Pughs",
      "lat": "51.529715",
      "lng": "-3.257175",
      "category": "Concession",
      "address": "Morganstown",
      "address2": "",
      "city": "Cardiff",
      "state": "",
      "postal": "CF15 8LB",
      "phone": "0800 999 4812",
      "web": "\/pages\/showroom-pughs",
      "hours1": "Mon-Wed & Sat 9:00am-5:00pm",
      "hours2": "Sun 10:00am-4:00pm",
      "hours3": "Thu-Fri CLOSED",
      "featured": "",
      "features": "",
      "date": "",
      "distance": 0
    },
    {
      "id": "9",
      "name": "Middletons Shrewsbury",
      "lat": "52.737396",
      "lng": "-2.719125 ",
      "category": "Store",
      "address": "Arlington Way",
      "address2": "",
      "city": "Shrewsbury",
      "state": "",
      "postal": "SY1 4YA",
      "phone": "0800 999 4812",
      "web": "\/pages\/showroom-shrewsbury",
      "hours1": "Mon-Sat 9:00am-5:00pm",
      "hours2": "Sun 10:00am-4:00pm",
      "hours3": "",
      "featured": "",
      "features": "Book a Bus",
      "date": "",
      "distance": 0
    },
    {
      "id": "12",
      "name": "Middletons Coventry",
      "lat": "52.397233",
      "lng": "-1.433260",
      "category": "Store",
      "address": "Unit 14 Warwickshire Retail Park",
      "address2": "Kynner Way",
      "city": "Coventry",
      "state": "",
      "postal": "CV3 2SB",
      "phone": "0800 999 4812",
      "web": "\/pages\/showroom-coventry",
      "hours1": "Mon-Sat 9:00am-5:00pm",
      "hours2": "Sun 10:00am-4:00pm",
      "hours3": "",
      "featured": "",
      "features": "",
      "date": "",
      "distance": 0
    },
    {
      "id": "13",
      "name": "Middletons Cheltenham",
      "lat": "51.902061",
      "lng": "-2.072122",
      "category": "Store",
      "address": "Unit 2",
      "address2": "64 Winchcombe St",
      "city": "Cheltenham",
      "state": "",
      "postal": "GL52 2ND",
      "phone": "0800 999 4812",
      "web": "\/pages\/showroom-cheltenham",
      "hours1": "Mon-Sat 9:00am-5:00pm",
      "hours2": "Sun 10:00am-4:00pm",
      "hours3": "",
      "featured": "",
      "features": "",
      "date": "",
      "distance": 0
    },
    {
      "id": "14",
      "name": "Middletons Cannock",
      "lat": "52.673725",
      "lng": "-2.019170",
      "category": "Store",
      "address": "Unit 10C Voyager Drive",
      "address2": "Orbital Retail Park",
      "city": "Cannock",
      "state": "",
      "postal": "WS11 8XP",
      "phone": "0800 999 4812",
      "web": "\/pages\/showroom-cannock",
      "hours1": "Mon-Sat 9:00am-5:00pm",
      "hours2": "Sun 10:00am-4:00pm",
      "hours3": "",
      "featured": "",
      "features": "",
      "date": "",
      "distance": 0
    },
    {
      "id": "15",
      "name": "Middletons Brierley Hill",
      "lat": "52.488458",
      "lng": "-2.118728",
      "category": "Store",
      "address": "Unit 2 Port West Waterfront",
      "address2": "Dudley Road",
      "city": "Brierley Hill",
      "state": "",
      "postal": "DY5 1LL",
      "phone": "0800 999 4812",
      "web": "\/pages\/showroom-brierley-hill",
      "hours1": "Mon-Sat 9:00am-5:00pm",
      "hours2": "Sun 10:00am-4:00pm",
      "hours3": "",
      "featured": "",
      "features": "",
      "date": "",
      "distance": 0
    },
    {
      "id": "16",
      "name": "Middletons Nottingham",
      "lat": "52.931041",
      "lng": "-1.163577",
      "category": "Store",
      "address": "Electric Avenue (Opposite Porsche)",
      "address2": "",
      "city": "Nottingham",
      "state": "",
      "postal": "NG2 1RS",
      "phone": "0800 999 4812",
      "web": "\/pages\/showroom-nottingham",
      "hours1": "Mon-Sat 9:00am-5:00pm",
      "hours2": "Sun 10:00am-4:00pm",
      "hours3": "",
      "featured": "",
      "features": "",
      "date": "",
      "distance": 0
    },
    {
      "id": "17",
      "name": "Middletons Swindon",
      "lat": "51.582667",
      "lng": "-1.751694",
      "category": "Store",
      "address": "Unit T8 Hobley Drive",
      "address2": "",
      "city": "Swindon",
      "state": "",
      "postal": "SN3 4NS",
      "phone": "0800 999 4812",
      "web": "\/pages\/showroom-swindon",
      "hours1": "Mon-Sat 9:00am-5:00pm",
      "hours2": "Sun 10:00am-4:00pm",
      "hours3": "",
      "featured": "",
      "features": "",
      "date": "",
      "distance": 0
    },
    {
      "id": "18",
      "name": "Middletons Plymouth",
      "lat": "50.394622",
      "lng": "-4.047375",
      "category": "Store",
      "address": "Units 2\/3 Strode Retail Park",
      "address2": "Plympton ",
      "city": "Plymouth ",
      "state": "",
      "postal": "PL7 4AY",
      "phone": "0800 999 4812",
      "web": "\/pages\/showroom-plymouth",
      "hours1": "Mon-Sat 9:00am-5:00pm",
      "hours2": "Sun 10:00am-4:00pm",
      "hours3": "",
      "featured": "",
      "features": "",
      "date": "",
      "distance": 0
    },
    {
      "id": "19",
      "name": "Middletons Exeter",
      "lat": "50.707764 ",
      "lng": "-3.530125 ",
      "category": "Store",
      "address": "4 Trusham Road",
      "address2": "Marsh Barton ",
      "city": "Exeter ",
      "state": "",
      "postal": "EX2 8QH",
      "phone": "0800 999 4812",
      "web": "\/pages\/showroom-exeter",
      "hours1": "Mon-Sat 9:00am-5:00pm",
      "hours2": "Sun 10:00am-4:00pm",
      "hours3": "",
      "featured": "",
      "features": "",
      "date": "",
      "distance": 0
    },
    {
      "id": "20",
      "name": "Middletons Burton",
      "lat": "52.802077",
      "lng": "-1.635147",
      "category": "Store",
      "address": "Unit 2 Union Street",
      "address2": "",
      "city": "Burton-on-Trent",
      "state": "",
      "postal": "DE14 1AA",
      "phone": "0800 999 4812",
      "web": "\/pages\/showroom-burton-on-trent",
      "hours1": "Mon-Sat 9:00am-5:00pm",
      "hours2": "Sun 10:00am-4:00pm",
      "hours3": "",
      "featured": "",
      "features": "",
      "date": "",
      "distance": 0
    },
    {
      "id": "21",
      "name": "Middletons Stoke",
      "lat": "53.056920",
      "lng": "-2.207406",
      "category": "Store",
      "address": "Jasper Square Retail Park",
      "address2": "Tunstall",
      "city": "Stoke-on-Trent",
      "state": "",
      "postal": "ST6 6AN",
      "phone": "0800 999 4812",
      "web": "\/pages\/showroom-stoke-on-trent",
      "hours1": "Mon-Sat 9:00am-5:00pm",
      "hours2": "Sun 10:00am-4:00pm",
      "hours3": "",
      "featured": "",
      "features": "",
      "date": "",
      "distance": 0
    },
    {
      "id": "22",
      "name": "Middletons Reading",
      "lat": "51.436415",
      "lng": "-0.973739",
      "category": "Store",
      "address": "31 Boulton Road",
      "address2": "",
      "city": "Reading",
      "state": "",
      "postal": "RG2 0NH",
      "phone": "0800 999 4812",
      "web": "\/pages\/showroom-reading",
      "hours1": "Mon-Sat 9:00am-5:00pm",
      "hours2": "Sun 10:00am-4:00pm",
      "hours3": "",
      "featured": "",
      "features": "",
      "date": "",
      "distance": 0
    }
  ]